GPS_TIME LAT LONG ALT PITCH ROLL HEADING
333769.200000 38.983116 -76.808893 33.921814 4.335920 -2.234023 133.471045
333769.300000 38.983123 -76.808894 34.253998 4.337078 -2.233054 133.464744
333773.000000 38.983135 -76.808977 40.375778 4.386184 -2.820216 133.059653
333773.100000 38.983081 -76.808967 39.312531 4.383391 -2.813614 133.016922
333773.200000 38.983084 -76.808972 39.660629 4.379993 -2.817917 133.009808
333773.300000 38.983087 -76.808978 40.008347 4.404321 -2.796098 132.997072
333773.400000 38.983090 -76.808983 40.356155 4.405758 -2.778439 132.980468
333773.500000 38.983093 -76.808989 40.706055 4.428296 -2.786766 132.964191
333773.600000 38.983096 -76.808995 41.057205 4.422090 -2.767220 132.951008
333773.700000 38.983098 -76.809001 41.408295 4.414333 -2.760729 132.936904
333773.800000 38.983102 -76.809007 41.758957 4.420715 -2.751672 132.920706
333773.900000 38.983104 -76.809013 42.109787 4.459849 -2.756388 132.903502
333774.000000 38.983106 -76.809020 42.462723 4.446445 -2.749037 132.890650
333774.100000 38.983051 -76.808985 41.062927 4.471631 -2.761193 132.858047
333774.200000 38.983053 -76.808991 41.412079 4.433130 -2.745558 132.843232
333774.300000 38.983056 -76.808998 41.762772 4.427058 -2.754941 132.829837
333774.400000 38.983058 -76.809005 42.113724 4.452962 -2.787394 132.811685
333774.500000 38.983060 -76.809013 42.464722 4.462160 -2.838698 132.794267
333774.600000 38.983062 -76.809019 42.817734 4.511229 -2.888321 132.779478
333774.700000 38.983064 -76.809027 43.170410 4.473888 -2.778347 132.768290
333774.800000 38.983065 -76.809034 43.523575 4.487083 -2.762925 132.759337
333774.900000 38.983067 -76.809042 43.878113 4.479021 -2.683975 132.776730
333775.000000 38.983068 -76.809050 44.236115 4.447178 -2.535599 132.836074
333775.100000 38.983023 -76.809010 40.337997 4.432989 -2.551460 132.923408
333775.200000 38.983024 -76.809017 40.691513 4.466626 -2.501158 133.021342
333775.300000 38.983026 -76.809026 41.044235 4.469974 -2.514131 133.115034
333775.400000 38.983027 -76.809034 41.397141 4.519885 -2.584500 133.214146
333775.500000 38.983029 -76.809042 41.751328 4.547484 -2.625787 133.318221
333775.600000 38.983030 -76.809051 42.106277 4.524468 -2.595167 133.453071
333775.700000 38.983031 -76.809060 42.461395 4.540951 -2.580187 133.621721
333775.800000 38.983032 -76.809068 42.817383 4.549718 -2.577718 133.786861
333775.900000 38.983033 -76.809077 43.173431 4.601755 -2.546709 133.943114
333776.000000 38.983035 -76.809087 43.529648 4.649510 -2.522726 134.083950
333776.100000 38.983000 -76.809003 37.842010 4.685810 -2.505161 134.206748
333776.200000 38.983001 -76.809013 38.198303 4.713637 -2.486816 134.308207
333776.300000 38.983001 -76.809022 38.555664 4.762679 -2.498434 134.380978
333776.400000 38.983003 -76.809032 38.912735 4.813264 -2.481544 134.425360
333776.500000 38.983003 -76.809042 39.270340 4.856240 -2.468757 134.432762
333776.600000 38.983004 -76.809051 39.628723 4.884550 -2.442078 134.419024
333776.700000 38.983005 -76.809061 39.987289 4.889757 -2.429949 134.403001
333776.800000 38.983005 -76.809071 40.346222 4.899063 -2.418618 134.386975
333776.900000 38.983006 -76.809082 40.704941 4.909002 -2.464433 134.360041
333777.000000 38.983006 -76.809092 41.064896 4.919733 -2.536414 134.338070
333777.100000 38.982978 -76.809036 39.783386 4.917793 -2.505162 134.307115
333777.200000 38.982978 -76.809047 40.143814 4.906790 -2.470535 134.281386
333777.300000 38.982978 -76.809058 40.505173 4.884182 -2.471981 134.257935
333777.400000 38.982979 -76.809068 40.866211 4.888923 -2.467928 134.229892
333777.500000 38.982979 -76.809079 41.226700 4.865234 -2.453003 134.205548
333777.600000 38.982979 -76.809091 41.588562 4.861635 -2.413362 134.182581
333777.700000 38.982979 -76.809101 41.950470 4.817671 -2.436548 134.158829
333777.800000 38.982979 -76.809113 42.312805 4.819585 -2.428681 134.133755
333777.900000 38.982978 -76.809124 42.674911 4.755447 -2.425367 134.108541
333778.000000 38.982978 -76.809135 43.038361 4.761329 -2.420315 134.081422
333778.100000 38.982984 -76.809135 44.908005 4.703270 -2.446170 134.057533
333778.200000 38.982984 -76.809146 45.271927 4.701790 -2.453527 134.029620
333778.300000 38.982983 -76.809158 45.636536 4.669413 -2.426599 134.003590
333778.400000 38.982982 -76.809170 46.001495 4.601002 -2.419870 133.976724
333778.500000 38.982982 -76.809182 46.366257 4.546503 -2.392836 133.949526
333778.600000 38.982982 -76.809194 46.731567 4.472341 -2.392167 133.931598
333778.700000 38.982980 -76.809207 47.096558 4.395245 -2.387365 133.907444
333778.800000 38.982980 -76.809219 47.462097 4.334032 -2.399882 133.899954
333778.900000 38.982979 -76.809231 47.828934 4.299620 -2.452412 133.891088
333779.000000 38.982978 -76.809244 48.196320 4.234423 -2.504433 133.889718
333779.100000 38.982992 -76.809231 46.643982 4.237717 -2.559570 133.908570
333779.200000 38.982992 -76.809243 47.015350 4.206841 -2.544491 133.924896
333779.300000 38.982991 -76.809257 47.388626 4.174864 -2.509435 133.941863
333779.400000 38.982990 -76.809270 47.761520 4.154089 -2.471403 133.961366
333779.500000 38.982989 -76.809282 48.134338 4.142470 -2.456253 133.989210
333779.600000 38.982988 -76.809296 48.507477 4.113143 -2.443690 134.020662
333779.700000 38.982987 -76.809309 48.880585 4.100874 -2.464118 134.042205
333779.800000 38.982986 -76.809323 49.253464 4.075200 -2.485271 134.066110
333779.900000 38.982984 -76.809336 49.628296 4.125114 -2.556169 134.091166
333780.000000 38.982984 -76.809349 50.003296 4.107232 -2.557291 134.116672
333780.100000 38.982996 -76.809331 45.218796 4.157447 -2.553251 134.145207
333780.200000 38.982995 -76.809344 45.593460 4.164204 -2.520574 134.162889
333780.300000 38.982994 -76.809357 45.968323 4.224710 -2.484513 134.183074
333780.400000 38.982993 -76.809371 46.342606 4.244153 -2.460712 134.192589
333780.500000 38.982992 -76.809386 46.716736 4.265002 -2.474919 134.194893
333780.600000 38.982990 -76.809400 47.091156 4.310227 -2.481406 134.186103
333780.700000 38.982989 -76.809414 47.465820 4.344341 -2.460310 134.174764
333780.800000 38.982988 -76.809428 47.841156 4.393695 -2.439877 134.168663
333780.900000 38.982986 -76.809443 48.216400 4.439896 -2.436091 134.157727
333781.000000 38.982984 -76.809457 48.591507 4.486072 -2.459069 134.142476
333781.100000 38.983000 -76.809427 42.379868 4.521257 -2.474491 134.135391
333781.200000 38.982998 -76.809442 42.754868 4.511560 -2.452236 134.139997
333781.300000 38.982996 -76.809457 43.130249 4.535896 -2.457155 134.153609
333781.400000 38.982994 -76.809471 43.505692 4.533371 -2.450745 134.169632
333781.500000 38.982993 -76.809486 43.881531 4.488726 -2.447129 134.182234
333781.600000 38.982991 -76.809502 44.257690 4.476359 -2.484576 134.195010
333781.700000 38.982990 -76.809517 44.634537 4.434241 -2.490558 134.215511
333781.800000 38.982988 -76.809532 45.012497 4.394661 -2.511205 134.240651
333781.900000 38.982986 -76.809547 45.390930 4.353542 -2.526649 134.262316
333782.000000 38.982984 -76.809563 45.770126 4.311964 -2.501222 134.288864
333782.100000 38.982979 -76.809567 46.075897 4.253491 -2.458716 134.285260
333782.200000 38.982977 -76.809583 46.453476 4.176395 -2.434974 134.325669
333782.300000 38.982975 -76.809598 46.830597 4.128919 -2.420808 134.376244
333782.400000 38.982973 -76.809614 47.207932 4.091786 -2.435582 134.425020
333782.500000 38.982971 -76.809630 47.585571 4.078262 -2.420823 134.473059
333782.600000 38.982968 -76.809646 47.963959 4.098710 -2.416550 134.515825
333782.700000 38.982966 -76.809663 48.342590 4.129309 -2.434371 134.558936
333782.800000 38.982964 -76.809679 48.721420 4.163752 -2.438551 134.598861
333782.900000 38.982962 -76.809695 49.100845 4.203439 -2.449225 134.634243
333783.000000 38.982960 -76.809711 49.481186 4.230458 -2.443757 134.673517
333783.100000 38.982949 -76.809728 49.019470 4.232614 -2.422066 134.674877
333783.200000 38.982946 -76.809744 49.399017 4.213240 -2.393349 134.695844
333783.300000 38.982944 -76.809760 49.778290 4.198124 -2.365300 134.710053
333783.400000 38.982942 -76.809777 50.157227 4.187256 -2.335267 134.717944
333783.500000 38.982939 -76.809795 50.535522 4.165243 -2.314560 134.722302
333783.600000 38.982936 -76.809812 50.913193 4.163010 -2.315399 134.724142
333783.700000 38.982933 -76.809829 51.291794 4.157012 -2.272455 134.725349
333783.800000 38.982931 -76.809846 51.670700 4.136487 -2.248187 134.729284
333783.900000 38.982928 -76.809863 52.048920 4.103311 -2.258192 134.741430
333784.000000 38.982925 -76.809880 52.429031 4.091640 -2.247592 134.763421
333784.100000 38.982905 -76.809740 63.293503 3.948334 -2.283660 134.070728
333784.200000 38.982901 -76.809756 63.695526 3.925375 -2.317272 134.108191
333784.300000 38.982899 -76.809772 64.098114 3.882117 -2.293403 134.161127
333784.400000 38.982895 -76.809788 64.501266 3.848847 -2.226433 134.221790
333784.500000 38.982893 -76.809803 64.903473 3.789760 -2.182167 134.280872
333784.600000 38.982890 -76.809819 65.304214 3.775416 -2.200720 134.333411
333784.700000 38.982887 -76.809836 65.704559 3.756461 -2.215283 134.370189
333784.800000 38.982884 -76.809852 66.105667 3.760572 -2.211770 134.387239
333784.900000 38.982880 -76.809868 66.507233 3.734008 -2.228194 134.397776
333785.000000 38.982878 -76.809884 66.908340 3.743294 -2.228493 134.405902
333785.100000 38.982623 -76.809541 91.360657 3.680814 -2.140641 133.774218
333785.200000 38.982620 -76.809557 91.772034 3.675706 -2.123206 133.781719
333785.300000 38.982615 -76.809572 92.182526 3.672513 -2.156546 133.811487
333785.400000 38.982612 -76.809588 92.593964 3.697551 -2.135552 133.862690
333785.500000 38.982608 -76.809603 93.005173 3.663018 -2.103466 133.911173
333785.600000 38.982604 -76.809620 93.415558 3.665503 -2.109529 133.951398
333785.700000 38.982600 -76.809635 93.826324 3.635093 -2.063766 133.985783
333785.800000 38.982596 -76.809651 94.236298 3.614637 -2.030897 134.018598
333785.900000 38.982591 -76.809667 94.645554 3.634606 -2.090032 134.044189
333786.000000 38.982587 -76.809683 95.056519 3.650643 -2.126810 134.063944
333786.100000 38.982447 -76.809485 111.112778 3.642832 -2.142730 133.561002
333786.200000 38.982443 -76.809501 111.537231 3.662041 -2.152452 133.563863
333786.300000 38.982438 -76.809517 111.961792 3.700248 -2.169824 133.572559
333786.400000 38.982433 -76.809532 112.386963 3.698892 -2.153587 133.572043
333786.500000 38.982429 -76.809548 112.812042 3.654251 -2.126424 133.570509
333786.600000 38.982424 -76.809563 113.236206 3.602675 -2.109685 133.570939
333786.700000 38.982418 -76.809579 113.660904 3.551198 -2.146931 133.573662
333786.800000 38.982414 -76.809595 114.086700 3.577214 -2.166851 133.577966
333786.900000 38.982409 -76.809611 114.513657 3.623833 -2.164087 133.570621
333787.000000 38.982404 -76.809627 114.940643 3.715464 -2.178355 133.562616
333787.100000 38.982011 -76.808268 77.154083 3.766134 -2.184534 133.023298
333787.200000 38.982006 -76.808283 77.592178 3.872880 -2.158020 133.023383
333787.300000 38.982001 -76.808297 78.029556 4.021943 -2.121417 133.029455
333787.400000 38.981995 -76.808313 78.466553 4.147167 -2.090559 133.030230
333787.500000 38.981989 -76.808328 78.902512 4.235230 -2.026245 133.033263
333787.600000 38.981984 -76.808344 79.337006 4.291295 -1.967554 133.042262
333787.700000 38.981978 -76.808359 79.769714 4.300535 -1.932582 133.072561
333787.800000 38.981973 -76.808374 80.201172 4.196612 -1.878735 133.153402
333787.900000 38.981967 -76.808390 80.631241 4.060714 -1.793803 133.300220
333788.000000 38.981961 -76.808406 81.058685 3.852438 -1.741127 133.482133
333788.100000 38.981830 -76.808143 67.862915 3.620135 -1.731919 133.192380
333788.200000 38.981823 -76.808158 68.283463 3.453362 -1.759879 133.363883
333788.300000 38.981817 -76.808173 68.707001 3.431989 -1.844886 133.511718
333788.400000 38.981811 -76.808189 69.131058 3.448019 -1.872586 133.623786
333788.500000 38.981804 -76.808203 69.556900 3.577411 -1.830742 133.730437
333788.600000 38.981798 -76.808219 69.983231 3.661303 -1.789571 133.823070
333788.700000 38.981792 -76.808235 70.407425 3.690923 -1.706944 133.909609
333788.800000 38.981785 -76.808250 70.829575 3.715560 -1.670026 133.996478
333788.900000 38.981779 -76.808266 71.250534 3.701011 -1.720817 134.075418
333789.000000 38.981773 -76.808283 71.673782 3.697750 -1.756359 134.143233
333789.100000 38.981684 -76.808068 70.479706 3.659499 -1.770286 133.727372
333789.200000 38.981677 -76.808083 70.900192 3.756695 -1.769925 133.769234
333789.300000 38.981670 -76.808099 71.319763 3.802293 -1.708634 133.792891
333789.400000 38.981663 -76.808114 71.738281 3.828815 -1.669179 133.819212
333789.500000 38.981656 -76.808130 72.155075 3.855402 -1.676557 133.854213
333789.600000 38.981649 -76.808145 72.573334 3.853760 -1.746028 133.892376
333789.700000 38.981642 -76.808160 72.993225 3.832148 -1.710134 133.922658
333789.800000 38.981635 -76.808177 73.413681 3.793439 -1.608249 133.946843
333789.900000 38.981628 -76.808192 73.830597 3.759145 -1.559780 133.970215
333790.000000 38.981621 -76.808207 74.245773 3.734572 -1.533931 133.990495
333790.100000 38.981547 -76.807985 74.857758 3.599238 -1.490334 133.544511
333790.200000 38.981539 -76.808001 75.264893 3.498693 -1.418753 133.559629
333790.300000 38.981531 -76.808016 75.669800 3.379445 -1.373650 133.578921
333790.400000 38.981523 -76.808031 76.073502 3.276238 -1.353290 133.597789
333790.500000 38.981516 -76.808046 76.476334 3.178530 -1.326376 133.607856
333790.600000 38.981508 -76.808062 76.879044 3.135342 -1.323535 133.617418
333790.700000 38.981500 -76.808077 77.282410 3.105845 -1.380510 133.623069
333790.800000 38.981492 -76.808093 77.687576 3.101932 -1.384163 133.619311
333790.900000 38.981484 -76.808109 78.092850 3.101958 -1.381965 133.611752
333790.999583 38.981476 -76.808124 78.498825 3.103466 -1.448790 133.603052
333791.099583 38.981409 -76.807896 79.420853 3.053443 -1.488441 133.128465
333791.199583 38.981400 -76.807910 79.824142 3.035624 -1.510818 133.112245
333791.299583 38.981391 -76.807926 80.229324 3.063788 -1.581957 133.095789
333791.400000 38.981383 -76.807941 80.636520 3.154274 -1.608561 133.069493
333791.500000 38.981374 -76.807956 81.045929 3.287443 -1.580980 133.022036
333791.600000 38.981366 -76.807971 81.454376 3.394214 -1.544366 132.969420
333791.700000 38.981357 -76.807987 81.861588 3.466600 -1.502996 132.925911
333791.800000 38.981348 -76.808002 82.267441 3.490416 -1.495100 132.899012
333791.900000 38.981339 -76.808017 82.673325 3.517164 -1.461627 132.898071
333792.000000 38.981330 -76.808032 83.079437 3.532826 -1.463050 132.914852
333792.100000 38.981268 -76.807800 84.002335 3.501414 -1.461814 132.479916
333792.200000 38.981258 -76.807814 84.404297 3.518913 -1.458868 132.511776
333792.300000 38.981249 -76.807829 84.807053 3.542496 -1.414397 132.544634
333792.400000 38.981240 -76.807843 85.208969 3.587609 -1.361258 132.583307
333792.500000 38.981230 -76.807859 85.609131 3.590981 -1.275149 132.629188
333792.600000 38.981221 -76.807873 86.007111 3.545772 -1.187252 132.687957
333792.700000 38.981211 -76.807888 86.401947 3.441742 -1.144779 132.776600
333792.800000 38.981202 -76.807903 86.796478 3.338884 -1.105558 132.880154
333792.900000 38.981193 -76.807918 87.190292 3.270088 -1.100129 132.982265
333793.000000 38.981184 -76.807932 87.585312 3.314028 -1.093864 133.078881
333793.100000 38.981126 -76.807695 88.359451 3.331206 -1.093449 132.713199
333793.200000 38.981116 -76.807709 88.748001 3.393090 -1.063664 132.795890
333793.300000 38.981106 -76.807723 89.134171 3.387999 -1.039571 132.877119
333793.400000 38.981096 -76.807738 89.519867 3.385706 -1.123293 132.959976
333793.500000 38.981087 -76.807753 89.907303 3.271687 -1.156015 133.032993
333793.600000 38.981077 -76.807767 90.295914 3.212130 -1.211695 133.094675
333793.700000 38.981067 -76.807782 90.685593 3.178487 -1.271393 133.147301
333793.800000 38.981058 -76.807796 91.079208 3.223975 -1.305242 133.175103
333793.900000 38.981048 -76.807811 91.471695 3.175772 -1.231434 133.184656
333794.000000 38.981038 -76.807825 91.863007 3.188497 -1.151154 133.197571
333794.100000 38.980967 -76.807577 94.053604 3.134926 -1.233569 132.781046
333794.200000 38.980957 -76.807591 94.439957 3.103606 -1.167298 132.788110
333794.300000 38.980946 -76.807605 94.825424 3.014857 -1.139433 132.791639
333794.400000 38.980936 -76.807619 95.209045 2.963288 -1.139024 132.853543
333794.500000 38.980926 -76.807633 95.594025 2.892256 -1.146719 132.999659
333794.600000 38.980915 -76.807648 95.979691 2.860385 -1.119552 133.179253
333794.700000 38.980905 -76.807662 96.363632 2.855199 -1.122648 133.336057
333794.800000 38.980895 -76.807677 96.748062 2.901724 -1.112686 133.452571
333794.900000 38.980884 -76.807692 97.132828 2.953677 -1.146036 133.541246
333795.000000 38.980874 -76.807707 97.519012 3.015341 -1.179603 133.605422
333795.100000 38.980819 -76.807452 96.464752 2.946767 -1.220290 133.155227
333795.200000 38.980808 -76.807466 96.853317 2.929906 -1.273283 133.208822
333795.300000 38.980798 -76.807480 97.242599 2.940354 -1.268770 133.264474
333795.400000 38.980788 -76.807493 97.632095 2.963925 -1.276828 133.311426
333795.500000 38.980777 -76.807507 98.022888 3.060216 -1.274447 133.355272
333795.600000 38.980766 -76.807521 98.414627 3.139317 -1.303692 133.398242
333795.700000 38.980756 -76.807536 98.806488 3.220356 -1.302445 133.440869
333795.800000 38.980745 -76.807550 99.198074 3.240655 -1.287368 133.484081
333795.900000 38.980735 -76.807564 99.590073 3.275050 -1.305894 133.528811
333796.000000 38.980724 -76.807578 99.981857 3.302654 -1.228150 133.567020
333796.100000 38.980671 -76.807309 97.760849 3.274520 -1.265474 133.130611
333796.200000 38.980660 -76.807322 98.151688 3.217054 -1.225568 133.155907
333796.300000 38.980649 -76.807336 98.542435 3.222026 -1.228803 133.184206
333796.400000 38.980638 -76.807349 98.932037 3.197007 -1.195491 133.227073
333796.500000 38.980627 -76.807363 99.321609 3.187992 -1.127868 133.278159
333796.600000 38.980616 -76.807376 99.709717 3.180492 -1.087776 133.329492
333796.700000 38.980605 -76.807389 100.096451 3.232284 -1.073426 133.377429
333796.800000 38.980594 -76.807403 100.483185 3.256361 -1.081614 133.418060
333796.900000 38.980583 -76.807417 100.870697 3.288737 -1.114636 133.457360
333797.000000 38.980572 -76.807431 101.259735 3.320692 -1.135926 133.497673
333797.100000 38.980477 -76.807203 104.552643 3.307555 -1.164964 133.088592
333797.200000 38.980465 -76.807216 104.945282 3.371814 -1.194709 133.124443
333797.300000 38.980454 -76.807228 105.338654 3.460050 -1.202682 133.148574
333797.400000 38.980442 -76.807242 105.733765 3.517052 -1.158930 133.168041
333797.500000 38.980431 -76.807255 106.128830 3.573387 -1.134575 133.189920
333797.600000 38.980420 -76.807268 106.523743 3.612922 -1.103397 133.210251
333797.700000 38.980408 -76.807281 106.918304 3.605918 -1.067562 133.235165
333797.800000 38.980397 -76.807294 107.311569 3.602070 -1.018677 133.261957
333797.900000 38.980385 -76.807308 107.703293 3.593346 -0.953246 133.285781
333798.000000 38.980373 -76.807321 108.092972 3.602970 -0.914144 133.310284
333798.100000 38.980420 -76.806902 118.402756 3.536493 -0.923768 132.914135
333798.200000 38.980409 -76.806914 118.785309 3.515590 -0.916781 132.932427
333798.300000 38.980397 -76.806926 119.168152 3.454981 -0.935233 132.950750
333798.400000 38.980385 -76.806938 119.552444 3.374268 -1.024747 132.975375
333798.500000 38.980374 -76.806950 119.939041 3.333285 -1.052865 132.995603
333798.600000 38.980362 -76.806963 120.327286 3.272346 -1.067781 133.011298
333798.700000 38.980350 -76.806975 120.716614 3.212765 -1.074170 133.024706
333798.800000 38.980339 -76.806988 121.105759 3.160694 -1.032830 133.035582
333798.900000 38.980327 -76.807000 121.494141 3.176269 -1.013736 133.054570
333799.000000 38.980315 -76.807013 121.882355 3.181240 -1.052808 133.078645
333799.100000 38.980331 -76.806717 131.800674 3.140820 -1.054161 132.774702
333799.200000 38.980320 -76.806729 132.181412 3.161191 -1.052174 132.808378
333799.300000 38.980308 -76.806740 132.564041 3.238947 -1.123168 132.849111
333799.400000 38.980296 -76.806752 132.949554 3.279429 -1.154847 132.884414
333799.500000 38.980284 -76.806764 133.336395 3.298310 -1.152831 132.925429
333799.600000 38.980273 -76.806776 133.722076 3.304567 -1.142801 132.977772
333799.700000 38.980261 -76.806788 134.108322 3.303205 -1.154589 133.031397
333799.800000 38.980249 -76.806800 134.493942 3.263988 -1.100794 133.074507
333799.900000 38.980237 -76.806812 134.878418 3.252363 -1.106809 133.116218
333800.000000 38.980225 -76.806824 135.262161 3.269050 -1.057463 133.160745
333800.100000 38.980213 -76.806556 137.800354 3.266104 -1.081671 132.898292
333800.200000 38.980201 -76.806567 138.176285 3.309692 -1.083991 132.942133
333800.300000 38.980190 -76.806579 138.552933 3.325124 -1.059968 132.981304
333800.400000 38.980177 -76.806590 138.929138 3.336667 -1.065411 133.017544
333800.500000 38.980165 -76.806601 139.306198 3.332683 -1.124408 133.051048
333800.600000 38.980154 -76.806613 139.685379 3.323555 -1.121569 133.082697
333800.700000 38.980142 -76.806625 140.065826 3.315817 -1.052857 133.112441
333800.800000 38.980130 -76.806636 140.443787 3.348849 -1.014058 133.138687
333800.900000 38.980118 -76.806648 140.821472 3.350902 -0.990439 133.182993
333801.000000 38.980106 -76.806660 141.198212 3.328469 -0.989653 133.248708
333801.100000 38.980082 -76.806400 140.625809 3.233732 -0.996514 133.042303
333801.200000 38.980070 -76.806410 140.995255 3.161311 -0.962159 133.122798
333801.300000 38.980057 -76.806421 141.364288 3.096317 -0.967889 133.202369
333801.400000 38.980046 -76.806432 141.734421 3.099630 -1.004432 133.273519
333801.500000 38.980034 -76.806443 142.105606 3.105142 -0.989390 133.333155
333801.600000 38.980022 -76.806454 142.475647 3.149654 -0.965546 133.387447
333801.700000 38.980011 -76.806465 142.845398 3.154834 -0.951408 133.445275
333801.800000 38.979998 -76.806477 143.214828 3.141590 -0.978086 133.507096
333801.900000 38.979987 -76.806487 143.584457 3.124892 -0.998486 133.564660
333802.000000 38.979975 -76.806499 143.955582 3.090184 -1.010892 133.609617
333802.100000 38.979944 -76.806243 142.102325 3.028733 -1.052688 133.379056
333802.200000 38.979933 -76.806253 142.467758 3.001346 -1.065453 133.416092
333802.300000 38.979921 -76.806264 142.834000 2.958661 -1.110848 133.449861
333802.400000 38.979909 -76.806274 143.201675 2.941714 -1.142883 133.483097
333802.500000 38.979897 -76.806285 143.570358 2.922342 -1.128155 133.512189
333802.600000 38.979885 -76.806296 143.938736 2.922803 -1.093879 133.537007
333802.700000 38.979873 -76.806306 144.306534 2.908274 -1.070437 133.562416
333802.800000 38.979861 -76.806317 144.673981 2.915318 -1.088753 133.586617
333802.900000 38.979850 -76.806328 145.041626 2.909112 -1.077514 133.606348
333803.000000 38.979838 -76.806339 145.409775 2.945436 -1.079073 133.625699
333803.100000 38.979806 -76.806085 142.927246 2.897041 -1.061195 133.396164
333803.200000 38.979794 -76.806096 143.286987 2.896904 -1.103640 133.412339
333803.300000 38.979782 -76.806105 143.647903 2.883939 -1.124345 133.425884
333803.400000 38.979770 -76.806115 144.008896 2.856520 -1.133333 133.438470
333803.500000 38.979758 -76.806125 144.370926 2.803868 -0.990167 133.482228
333803.600000 38.979746 -76.806135 144.728333 2.799822 -0.949348 133.544486
333803.700000 38.979734 -76.806146 145.086166 2.794520 -1.009333 133.608367
333803.800000 38.979722 -76.806156 145.447632 2.771767 -1.052589 133.663974
333803.900000 38.979710 -76.806166 145.810959 2.724396 -1.044895 133.725735
333804.000000 38.979698 -76.806176 146.173309 2.641561 -0.988581 133.791322
333804.100000 38.979665 -76.805926 143.287094 2.534059 -0.995352 133.624581
333804.200000 38.979653 -76.805935 143.638870 2.569567 -1.031537 133.677269
333804.300000 38.979641 -76.805944 143.992035 2.658696 -1.037088 133.713539
333804.400000 38.979629 -76.805954 144.345062 2.773556 -1.042642 133.737889
333804.500000 38.979618 -76.805964 144.698410 2.846964 -1.099023 133.764322
333804.600000 38.979606 -76.805973 145.054291 2.869046 -1.086249 133.794964
333804.700000 38.979593 -76.805983 145.409958 2.875999 -1.117483 133.825850
333804.800000 38.979581 -76.805993 145.766968 2.910313 -1.104136 133.856704
333804.900000 38.979569 -76.806003 146.123367 2.973376 -1.067254 133.876004
333805.000000 38.979558 -76.806012 146.479004 3.034728 -1.062646 133.893849
333805.100000 38.979525 -76.805777 143.216843 3.038205 -1.059946 133.699453
333805.200000 38.979513 -76.805785 143.562927 3.042414 -1.082016 133.713840
333805.300000 38.979501 -76.805795 143.910187 3.041021 -1.069127 133.724725
333805.400000 38.979489 -76.805803 144.257431 3.034941 -1.053741 133.728661
333805.500000 38.979477 -76.805813 144.604706 3.042226 -1.066161 133.734318
333805.600000 38.979465 -76.805822 144.952301 3.046035 -1.059090 133.737967
333805.700000 38.979452 -76.805831 145.299652 3.037894 -1.063891 133.737463
333805.800000 38.979440 -76.805840 145.647614 3.025570 -1.081826 133.738792
333805.900000 38.979428 -76.805849 145.995789 2.979238 -1.102364 133.743223
333806.000000 38.979416 -76.805858 146.344666 2.966317 -1.108582 133.760569
333806.100000 38.979382 -76.805616 143.134796 2.885367 -1.131262 133.595843
333806.200000 38.979369 -76.805625 143.476654 2.866306 -1.089151 133.615870
333806.300000 38.979357 -76.805634 143.818054 2.824125 -1.065363 133.639975
333806.400000 38.979345 -76.805643 144.158676 2.756601 -0.989559 133.663043
333806.500000 38.979333 -76.805651 144.498032 2.651973 -0.985360 133.696694
333806.600000 38.979321 -76.805659 144.838715 2.634849 -1.064333 133.745523
333806.700000 38.979308 -76.805668 145.184006 2.801049 -1.215023 133.785686
333806.800000 38.979296 -76.805677 145.536697 3.180372 -1.219512 133.802589
333806.900000 38.979284 -76.805685 145.890701 3.525533 -1.130943 133.805052
333807.000000 38.979272 -76.805695 146.239716 3.715166 -0.983710 133.818817
333807.100000 38.979236 -76.805441 143.358246 3.634718 -0.902102 133.694113
333807.200000 38.979224 -76.805449 143.690292 3.509839 -0.898581 133.780372
333807.300000 38.979212 -76.805457 144.023422 3.410781 -0.919493 133.869857
333807.400000 38.979200 -76.805466 144.359772 3.389998 -0.969399 133.940088
333807.500000 38.979188 -76.805473 144.698517 3.416584 -0.954159 133.993819
333807.600000 38.979176 -76.805482 145.036133 3.413651 -0.950690 134.045208
333807.700000 38.979164 -76.805490 145.373169 3.402695 -0.933005 134.107717
333807.800000 38.979152 -76.805498 145.710266 3.352905 -0.907748 134.177485
333807.900000 38.979139 -76.805506 146.046875 3.299115 -0.879266 134.237595
333808.000000 38.979127 -76.805514 146.382797 3.247676 -0.881045 134.291450
333808.100000 38.979096 -76.805288 142.861206 3.223362 -0.897624 134.187275
333808.200000 38.979084 -76.805296 143.191360 3.244823 -0.951854 134.231302
333808.300000 38.979072 -76.805303 143.522949 3.280472 -0.934476 134.259053
333808.400000 38.979060 -76.805311 143.854294 3.277961 -0.905728 134.285533
333808.500000 38.979048 -76.805318 144.184814 3.262838 -0.928238 134.320940
333808.600000 38.979036 -76.805325 144.515045 3.243923 -0.912347 134.353101
333808.700000 38.979025 -76.805333 144.844376 3.202805 -0.848848 134.382916
333808.800000 38.979013 -76.805340 145.172379 3.196930 -0.861299 134.411537
333808.900000 38.979001 -76.805348 145.500824 3.257689 -0.862746 134.429854
333809.000000 38.978989 -76.805356 145.830582 3.331257 -0.842036 134.429719
333809.100000 38.978942 -76.805098 119.986816 3.294929 -0.860663 134.285306
333809.200000 38.978930 -76.805105 120.297806 3.369579 -0.858861 134.282254
333809.300000 38.978918 -76.805111 120.609268 3.447666 -0.791816 134.268493
333809.400000 38.978906 -76.805118 120.918625 3.493781 -0.799647 134.228393
333809.500000 38.978895 -76.805124 121.228012 3.538089 -0.835609 134.177585
333809.600000 38.978883 -76.805131 121.539017 3.529811 -0.872396 134.125525
333809.700000 38.978871 -76.805138 121.852051 3.452477 -0.944557 134.081846
333809.800000 38.978859 -76.805144 122.167435 3.344853 -0.994181 134.044089
333809.900000 38.978848 -76.805150 122.484863 3.290612 -1.081140 134.009281
333810.000000 38.978836 -76.805158 122.805450 3.289226 -1.122000 133.961117
333810.100000 38.978808 -76.804918 110.782730 3.256590 -1.156343 133.794903
333810.200000 38.978795 -76.804923 111.090378 3.247251 -1.093362 133.740092
333810.300000 38.978784 -76.804929 111.395798 3.291436 -1.043189 133.691819
333810.400000 38.978772 -76.804935 111.700165 3.357029 -1.052111 133.661236
333810.500000 38.978760 -76.804940 112.003525 3.463870 -0.996819 133.626680
333810.600000 38.978749 -76.804947 112.305328 3.502077 -1.000577 133.590380
333810.700000 38.978736 -76.804953 112.607193 3.539774 -1.024642 133.564965
333810.800000 38.978725 -76.804958 112.909225 3.512249 -1.049286 133.538109
333810.900000 38.978713 -76.804964 113.211761 3.491191 -1.092557 133.513716
333811.000000 38.978701 -76.804969 113.516479 3.513615 -1.123627 133.486049
333811.100000 38.978671 -76.804741 105.310440 3.524648 -1.158318 133.357042
333811.200000 38.978659 -76.804747 105.604141 3.590738 -1.166820 133.316129
333811.300000 38.978647 -76.804752 105.899185 3.629522 -1.208070 133.279921
333811.400000 38.978635 -76.804757 106.194870 3.670895 -1.210290 133.241575
333811.500000 38.978623 -76.804762 106.491531 3.695365 -1.218056 133.204787
333811.600000 38.978611 -76.804767 106.788635 3.715035 -1.252152 133.163590
333811.700000 38.978599 -76.804773 107.086990 3.732096 -1.230461 133.118990
333811.800000 38.978587 -76.804778 107.385223 3.712229 -1.268735 133.071120
333811.900000 38.978575 -76.804784 107.684219 3.706419 -1.288825 133.024364
333812.000000 38.978562 -76.804789 107.984650 3.690668 -1.246919 132.976372
333812.100000 38.978522 -76.804559 100.292603 3.670596 -1.225338 132.867260
333812.200000 38.978509 -76.804563 100.569748 3.683947 -1.212787 132.820284
333812.300000 38.978497 -76.804568 100.846313 3.704691 -1.210438 132.774120
333812.400000 38.978485 -76.804573 101.123184 3.716903 -1.216620 132.737655
333812.500000 38.978472 -76.804578 101.400726 3.692905 -1.251953 132.712174
333812.600000 38.978460 -76.804583 101.680099 3.705277 -1.264469 132.691664
333812.700000 38.978447 -76.804588 101.959839 3.735270 -1.256229 132.668183
333812.800000 38.978435 -76.804593 102.240158 3.777273 -1.241811 132.643274
333812.900000 38.978423 -76.804598 102.520126 3.806386 -1.278400 132.620089
333813.000000 38.978411 -76.804603 102.800888 3.833224 -1.283090 132.597836
333813.100000 38.978362 -76.804375 96.479599 3.802778 -1.321865 132.526138
333813.200000 38.978349 -76.804380 96.746689 3.784711 -1.299580 132.513587
333813.300000 38.978336 -76.804385 97.012924 3.750555 -1.288555 132.502265
333813.400000 38.978324 -76.804389 97.278488 3.719209 -1.246331 132.491813
333813.500000 38.978311 -76.804394 97.543808 3.687408 -1.193971 132.488011
333813.600000 38.978299 -76.804399 97.806992 3.689975 -1.180586 132.487805
333813.700000 38.978286 -76.804403 98.070511 3.667152 -1.163938 132.488522
333813.800000 38.978274 -76.804408 98.335236 3.656698 -1.160338 132.501831
333813.900000 38.978261 -76.804413 98.600555 3.675937 -1.187073 132.525664
333814.000000 38.978248 -76.804417 98.866470 3.697776 -1.220133 132.556456
333814.100000 38.978195 -76.804208 92.479797 3.688346 -1.240927 132.547016
333814.200000 38.978183 -76.804212 92.734268 3.691274 -1.259068 132.588236
333814.300000 38.978170 -76.804216 92.989563 3.664613 -1.245047 132.629748
333814.400000 38.978157 -76.804221 93.244110 3.557795 -1.250947 132.672280
333814.500000 38.978144 -76.804225 93.498627 3.456352 -1.282473 132.708215
333814.600000 38.978132 -76.804230 93.754242 3.350371 -1.282455 132.733649
333814.700000 38.978120 -76.804234 94.011124 3.332358 -1.274855 132.750587
333814.800000 38.978107 -76.804239 94.266647 3.354910 -1.216596 132.754188
333814.900000 38.978094 -76.804244 94.521118 3.420448 -1.212434 132.751049
333814.999583 38.978081 -76.804249 94.775986 3.462704 -1.256854 132.748596
333815.099583 38.978028 -76.804048 87.129379 3.497632 -1.250448 132.697043
333815.199583 38.978016 -76.804052 87.374100 3.483512 -1.307005 132.679910
333815.299583 38.978003 -76.804057 87.620819 3.519623 -1.314659 132.662861
333815.400000 38.977990 -76.804061 87.868958 3.515871 -1.359088 132.637137
333815.500000 38.977977 -76.804065 88.117554 3.499109 -1.334688 132.608244
333815.600000 38.977965 -76.804069 88.366394 3.464586 -1.338176 132.583935
333815.700000 38.977951 -76.804073 88.613708 3.449772 -1.346637 132.558602
333815.800000 38.977939 -76.804079 88.860153 3.381397 -1.186959 132.527377
333815.900000 38.977926 -76.804083 89.100876 3.200542 -1.111956 132.499298
333816.000000 38.977913 -76.804088 89.337952 2.952892 -1.049146 132.478283
333816.100000 38.977857 -76.803884 81.543411 2.632384 -1.025242 132.417832
333816.200000 38.977843 -76.803888 81.766159 2.409064 -1.071957 132.401848
333816.300000 38.977831 -76.803892 81.992645 2.339644 -1.141725 132.371146
333816.400000 38.977817 -76.803896 82.222946 2.376502 -1.207236 132.317027
333816.500000 38.977804 -76.803900 82.455399 2.459224 -1.250986 132.259287
333816.600000 38.977791 -76.803904 82.690262 2.551724 -1.316114 132.204522
333816.700000 38.977778 -76.803908 82.927917 2.619168 -1.339195 132.158688
333816.800000 38.977765 -76.803913 83.167892 2.733866 -1.352402 132.123857
333816.900000 38.977751 -76.803917 83.409363 2.784997 -1.343195 132.091861
333817.000000 38.977739 -76.803921 83.650009 2.822194 -1.328363 132.065371
333817.100000 38.977675 -76.803713 76.442627 2.829394 -1.327699 132.000909
333817.200000 38.977662 -76.803717 76.671051 2.826822 -1.287653 131.974321
333817.300000 38.977649 -76.803720 76.897903 2.829684 -1.307366 131.951547
333817.400000 38.977635 -76.803724 77.124481 2.842405 -1.285642 131.926260
333817.500000 38.977622 -76.803727 77.350479 2.844924 -1.278559 131.895328
333817.600000 38.977609 -76.803731 77.576370 2.864536 -1.347575 131.865912
333817.700000 38.977596 -76.803735 77.804184 2.943616 -1.346270 131.849042
333817.800000 38.977582 -76.803739 78.032425 3.006849 -1.408279 131.841394
333817.900000 38.977569 -76.803742 78.262238 3.072798 -1.468031 131.833065
333818.000000 38.977556 -76.803746 78.494873 3.074081 -1.485677 131.823677
333818.100000 38.977515 -76.803550 71.416946 3.025730 -1.463989 131.776321
333818.200000 38.977503 -76.803553 71.637985 3.028844 -1.394921 131.760852
333818.300000 38.977489 -76.803556 71.856934 3.001258 -1.369266 131.742553
333818.400000 38.977476 -76.803560 72.074753 2.917286 -1.339847 131.723841
333818.500000 38.977462 -76.803563 72.291504 2.763382 -1.338477 131.724920
333818.600000 38.977449 -76.803567 72.508621 2.595905 -1.297395 131.760311
333818.700000 38.977436 -76.803570 72.725113 2.423320 -1.324665 131.818417
333818.800000 38.977422 -76.803574 72.942352 2.332651 -1.341732 131.885629
333818.900000 38.977408 -76.803577 73.160446 2.263306 -1.369956 131.946840
333819.000000 38.977395 -76.803581 73.379883 2.236030 -1.408634 132.001587
333819.100000 38.977361 -76.803386 67.286255 2.231589 -1.411223 132.012700
333819.200000 38.977348 -76.803389 67.499847 2.264763 -1.411108 132.014612
333819.300000 38.977334 -76.803393 67.712845 2.277731 -1.390753 131.988925
333819.400000 38.977321 -76.803396 67.925400 2.266347 -1.397426 131.963060
333819.500000 38.977308 -76.803400 68.137299 2.248750 -1.391936 131.931236
333819.600000 38.977294 -76.803403 68.349655 2.230466 -1.359506 131.901071
333819.700000 38.977280 -76.803406 68.562302 2.253904 -1.344400 131.877925
333819.800000 38.977267 -76.803410 68.774826 2.282304 -1.329450 131.850188
333819.900000 38.977253 -76.803413 68.988434 2.298170 -1.307095 131.820605
333820.000000 38.977240 -76.803416 69.200806 2.283257 -1.324208 131.800296
333820.100000 38.977224 -76.803238 70.886765 2.269941 -1.319713 131.771784
333820.200000 38.977210 -76.803241 71.098145 2.290160 -1.337557 131.773642
333820.300000 38.977196 -76.803244 71.310776 2.311806 -1.362562 131.770030
333820.400000 38.977183 -76.803247 71.523224 2.282416 -1.370721 131.766618
333820.500000 38.977169 -76.803250 71.736313 2.297209 -1.381460 131.765493
333820.600000 38.977155 -76.803253 71.949905 2.266999 -1.387501 131.749568
333820.700000 38.977142 -76.803256 72.163254 2.266648 -1.350778 131.727940
333820.800000 38.977128 -76.803259 72.376968 2.261550 -1.356316 131.714286
333820.900000 38.977115 -76.803262 72.590347 2.277303 -1.441632 131.697031
333821.000000 38.977101 -76.803265 72.806992 2.355603 -1.415670 131.672049
333821.100000 38.977126 -76.803056 56.571411 2.392887 -1.423513 131.611239
333821.200000 38.977113 -76.803058 56.776718 2.405203 -1.465488 131.591796
333821.300000 38.977100 -76.803061 56.982742 2.378843 -1.571442 131.578988
333821.400000 38.977086 -76.803064 57.192749 2.366844 -1.568394 131.560923
333821.500000 38.977072 -76.803066 57.402267 2.408637 -1.531899 131.538127
333821.600000 38.977059 -76.803068 57.610367 2.433814 -1.546180 131.506974
333821.700000 38.977045 -76.803071 57.818604 2.420801 -1.574582 131.471421
333821.800000 38.977032 -76.803074 58.027603 2.393118 -1.565486 131.433695
333821.900000 38.977018 -76.803076 58.236908 2.354798 -1.571965 131.398090
333822.000000 38.977004 -76.803078 58.446121 2.333889 -1.599047 131.363281
333822.100000 38.977009 -76.802897 48.582565 2.315637 -1.551630 131.297371
333822.200000 38.976996 -76.802899 48.784042 2.355670 -1.603654 131.255520
333822.300000 38.976982 -76.802901 48.986526 2.423086 -1.661537 131.216286
333822.400000 38.976968 -76.802903 49.190430 2.512113 -1.656251 131.174458
333822.500000 38.976954 -76.802905 49.395035 2.533835 -1.668213 131.138133
333822.600000 38.976941 -76.802907 49.599915 2.525520 -1.652912 131.102197
333822.700000 38.976927 -76.802909 49.803741 2.482412 -1.599710 131.072416
333822.800000 38.976913 -76.802912 50.006042 2.420433 -1.655818 131.046178
333822.900000 38.976899 -76.802914 50.209213 2.381110 -1.632014 131.022027
333823.000000 38.976886 -76.802916 50.412766 2.328432 -1.658722 131.000192
333823.100000 38.976871 -76.802728 44.514008 2.262204 -1.709242 130.972056
333823.200000 38.976857 -76.802729 44.714020 2.177805 -1.722966 130.982832
333823.300000 38.976844 -76.802731 44.915436 2.053836 -1.790872 131.084891
333823.400000 38.976829 -76.802733 45.118210 1.954017 -1.799196 131.285283
333823.500000 38.976816 -76.802735 45.322220 1.891043 -1.764651 131.504408
333823.600000 38.976802 -76.802737 45.524551 1.881828 -1.707714 131.667027
333823.700000 38.976789 -76.802739 45.725204 1.935571 -1.725659 131.772192
333823.800000 38.976775 -76.802741 45.925552 2.028408 -1.689502 131.833330
333823.900000 38.976761 -76.802744 46.126007 2.076856 -1.677348 131.872990
333824.000000 38.976748 -76.802746 46.326447 2.127956 -1.694563 131.910069
333824.100000 38.976728 -76.802557 42.320190 2.123280 -1.748749 131.932798
333824.200000 38.976715 -76.802559 42.515427 2.134578 -1.800283 131.977898
333824.300000 38.976701 -76.802561 42.712875 2.164807 -1.851329 132.015639
333824.400000 38.976688 -76.802563 42.911880 2.163688 -1.841076 132.040441
333824.500000 38.976674 -76.802565 43.110321 2.188014 -1.831316 132.042037
333824.600000 38.976660 -76.802567 43.308151 2.194412 -1.819226 132.023465
333824.700000 38.976647 -76.802569 43.506180 2.188050 -1.852753 131.999183
333824.800000 38.976633 -76.802571 43.706223 2.221949 -1.899221 131.978117
333824.900000 38.976620 -76.802572 43.907379 2.245832 -1.876199 131.947444
333825.000000 38.976606 -76.802574 44.108414 2.268525 -1.841864 131.910495
333825.100000 38.976568 -76.802360 42.835098 2.268199 -1.807643 131.857559
333825.200000 38.976554 -76.802361 43.030075 2.300794 -1.823624 131.816980
333825.300000 38.976540 -76.802362 43.225479 2.331694 -1.850331 131.767533
333825.400000 38.976527 -76.802364 43.422714 2.354965 -1.893998 131.720309
333825.500000 38.976513 -76.802366 43.622910 2.360833 -1.897487 131.677311
333825.600000 38.976500 -76.802367 43.822357 2.331727 -1.920900 131.634990
333825.700000 38.976486 -76.802368 44.022003 2.381140 -1.895272 131.600862
333825.800000 38.976472 -76.802370 44.222031 2.418015 -1.992641 131.559319
333825.900000 38.976459 -76.802371 44.423553 2.476659 -1.941355 131.512781
333826.000000 38.976445 -76.802373 44.624802 2.537645 -1.970113 131.475361
333826.100000 38.976427 -76.802215 40.796310 2.540930 -1.990445 131.430693
333826.200000 38.976413 -76.802215 40.990005 2.531331 -1.969244 131.397211
333826.300000 38.976400 -76.802217 41.182922 2.500613 -1.957347 131.370739
333826.400000 38.976386 -76.802217 41.376297 2.470239 -1.981169 131.344328
333826.500000 38.976372 -76.802219 41.570709 2.445836 -2.015763 131.320386
333826.600000 38.976358 -76.802219 41.766190 2.422847 -1.993652 131.290404
333826.700000 38.976345 -76.802221 41.961868 2.386894 -2.054320 131.262787
333826.800000 38.976331 -76.802221 42.158340 2.395986 -1.979966 131.238521
333826.900000 38.976316 -76.802223 42.353958 2.400485 -1.984058 131.212874
333827.000000 38.976303 -76.802223 42.549988 2.426822 -1.997382 131.197096
333827.100000 38.976274 -76.802053 39.166245 2.371029 -1.992088 131.190833
333827.200000 38.976261 -76.802053 39.355560 2.337909 -1.982775 131.218551
333827.300000 38.976247 -76.802054 39.544891 2.303173 -2.026378 131.262709
333827.400000 38.976233 -76.802054 39.737213 2.277216 -2.082889 131.314130
333827.500000 38.976219 -76.802055 39.930542 2.274714 -2.062173 131.360245
333827.600000 38.976206 -76.802056 40.123459 2.279746 -2.048612 131.403987
333827.700000 38.976192 -76.802056 40.316086 2.285212 -2.056489 131.448589
333827.800000 38.976178 -76.802057 40.507767 2.297844 -2.060795 131.488081
333827.900000 38.976165 -76.802058 40.698578 2.311709 -2.028498 131.520751
333828.000000 38.976151 -76.802058 40.889191 2.297391 -2.006891 131.547046
333828.100000 38.976105 -76.801853 40.238647 2.274842 -2.043556 131.571484
333828.200000 38.976091 -76.801853 40.427917 2.327593 -2.055151 131.600641
333828.300000 38.976078 -76.801854 40.617966 2.361057 -2.050345 131.619263
333828.400000 38.976064 -76.801855 40.807358 2.376309 -2.035819 131.634339
333828.500000 38.976050 -76.801855 40.996735 2.386812 -2.014779 131.658538
333828.600000 38.976037 -76.801855 41.185135 2.388533 -1.998225 131.682981
333828.700000 38.976023 -76.801856 41.373947 2.392709 -2.003345 131.702793
333828.800000 38.976009 -76.801856 41.564041 2.395529 -1.998623 131.719007
333828.900000 38.975996 -76.801856 41.754211 2.410088 -1.971657 131.723145
333829.000000 38.975983 -76.801857 41.943115 2.417424 -1.924300 131.714309
333829.100000 38.975949 -76.801684 40.065506 2.416293 -1.932020 131.697224
333829.200000 38.975935 -76.801684 40.249344 2.421231 -1.898991 131.668424
333829.300000 38.975921 -76.801684 40.432678 2.406646 -1.909280 131.643635
333829.400000 38.975908 -76.801684 40.615570 2.402011 -1.937193 131.617828
333829.500000 38.975895 -76.801684 40.799759 2.400722 -1.934103 131.598282
333829.600000 38.975881 -76.801683 40.985016 2.384409 -1.975588 131.576889
333829.700000 38.975868 -76.801683 41.171127 2.392260 -1.987263 131.544033
333829.800000 38.975854 -76.801683 41.357620 2.386082 -2.040495 131.508866
333829.900000 38.975841 -76.801682 41.545593 2.396617 -2.118524 131.472234
333830.000000 38.975828 -76.801682 41.736237 2.401265 -2.111977 131.435170
333830.100000 38.975814 -76.801472 40.001205 2.372271 -2.135173 131.393443
333830.200000 38.975800 -76.801472 40.189850 2.336755 -2.117143 131.327445
333830.300000 38.975787 -76.801470 40.377502 2.326654 -2.120410 131.253092
333830.400000 38.975773 -76.801470 40.565186 2.325677 -2.090318 131.182403
333830.500000 38.975760 -76.801469 40.752396 2.387652 -2.128669 131.113287
333830.600000 38.975746 -76.801468 40.941315 2.584042 -2.173825 131.040094
333830.700000 38.975733 -76.801467 41.133362 2.831003 -2.121494 130.949423
333830.800000 38.975720 -76.801466 41.323044 3.028990 -2.039024 130.873792
333830.900000 38.975706 -76.801465 41.509140 3.117265 -2.007975 130.857502
333831.000000 38.975693 -76.801464 41.692963 3.038083 -1.953378 130.891594
333831.100000 38.975661 -76.801302 38.620422 2.867739 -1.977011 130.975280
333831.200000 38.975648 -76.801301 38.798187 2.743964 -1.956987 131.053488
333831.300000 38.975635 -76.801299 38.976547 2.707150 -1.958903 131.113787
333831.400000 38.975621 -76.801298 39.155685 2.717863 -1.988702 131.165440
333831.500000 38.975608 -76.801296 39.335495 2.784165 -2.066383 131.212658
333831.600000 38.975594 -76.801295 39.517044 2.850618 -2.109435 131.261728
333831.700000 38.975582 -76.801293 39.699936 2.884338 -2.053147 131.309268
333831.800000 38.975568 -76.801291 39.881195 2.839425 -2.031394 131.360071
333831.900000 38.975555 -76.801291 40.060944 2.792900 -2.049615 131.414906
333832.000000 38.975542 -76.801289 40.240051 2.777017 -2.000693 131.459923
333832.100000 38.975512 -76.801139 37.275116 2.764163 -1.989428 131.516680
333832.200000 38.975500 -76.801137 37.447937 2.762249 -2.041138 131.539576
333832.300000 38.975486 -76.801135 37.620789 2.741340 -2.080487 131.558261
333832.400000 38.975474 -76.801133 37.797241 2.763554 -2.133482 131.578262
333832.500000 38.975460 -76.801131 37.974487 2.710077 -2.144112 131.595511
333832.600000 38.975447 -76.801130 38.150787 2.658737 -2.168522 131.623140
333832.700000 38.975435 -76.801128 38.327576 2.631110 -2.118526 131.664609
333832.800000 38.975421 -76.801126 38.502823 2.632402 -2.102671 131.715069
333832.900000 38.975409 -76.801124 38.677795 2.646512 -2.121871 131.772175
333833.000000 38.975395 -76.801122 38.853897 2.678312 -2.103832 131.827813
333833.100000 38.975365 -76.800979 36.431229 2.650495 -2.151142 131.905537
333833.200000 38.975352 -76.800976 36.601440 2.658044 -2.121648 131.957661
333833.300000 38.975339 -76.800974 36.771133 2.660900 -2.138832 132.020794
333833.400000 38.975326 -76.800972 36.940048 2.649041 -2.097270 132.087985
333833.500000 38.975313 -76.800970 37.109161 2.616445 -2.107206 132.157074
333833.600000 38.975300 -76.800967 37.278152 2.581756 -2.089360 132.229103
333833.700000 38.975287 -76.800966 37.446442 2.585414 -2.074649 132.298828
333833.800000 38.975274 -76.800963 37.614212 2.566872 -2.049560 132.371431
333833.900000 38.975261 -76.800962 37.780167 2.556763 -2.036961 132.447525
333834.000000 38.975248 -76.800960 37.946045 2.560405 -2.047627 132.529378
333834.100000 38.975234 -76.800790 36.496277 2.558809 -2.076017 132.641163
333834.200000 38.975221 -76.800788 36.660721 2.610845 -2.054828 132.716733
333834.300000 38.975208 -76.800786 36.824463 2.670399 -2.032774 132.790803
333834.400000 38.975195 -76.800784 36.988144 2.719949 -2.048481 132.862507
333834.500000 38.975183 -76.800782 37.151932 2.762789 -2.045101 132.929730
333834.600000 38.975170 -76.800780 37.316544 2.785099 -2.053293 132.988381
333834.700000 38.975156 -76.800778 37.482407 2.830879 -2.095352 133.031082
333834.800000 38.975144 -76.800776 37.649216 2.886456 -2.063824 133.066524
333834.900000 38.975131 -76.800774 37.814987 2.941601 -2.102260 133.096843
333835.000000 38.975118 -76.800772 37.982086 2.989802 -2.173971 133.130011
333835.100000 38.975129 -76.800607 37.954849 2.976060 -2.237105 133.192029
333835.200000 38.975116 -76.800605 38.127182 2.984584 -2.248201 133.222210
333835.300000 38.975103 -76.800602 38.300751 2.992832 -2.282304 133.249961
333835.400000 38.975090 -76.800600 38.474136 2.962149 -2.234251 133.278904
333835.500000 38.975077 -76.800598 38.645828 2.950819 -2.194407 133.308980
333835.600000 38.975065 -76.800596 38.815308 2.951227 -2.159874 133.347011
333835.700000 38.975052 -76.800594 38.984695 2.993418 -2.156880 133.398206
333835.800000 38.975038 -76.800591 39.152908 3.003322 -2.130830 133.460974
333835.900000 38.975026 -76.800590 39.319855 2.981825 -2.017709 133.523864
333836.000000 38.975013 -76.800587 39.483871 2.928204 -1.998763 133.596104
333836.100000 38.975003 -76.800448 37.887482 2.827017 -2.029432 133.711093
333836.200000 38.974989 -76.800446 38.048569 2.820104 -2.065982 133.783807
333836.300000 38.974977 -76.800444 38.211990 2.806271 -2.046232 133.851614
333836.400000 38.974964 -76.800442 38.374710 2.776820 -2.019017 133.911595
333836.500000 38.974951 -76.800440 38.536163 2.698734 -2.045425 133.981951
333836.600000 38.974938 -76.800437 38.698166 2.626282 -2.012075 134.051775
333836.700000 38.974924 -76.800436 38.859497 2.589580 -2.023343 134.119204
333836.800000 38.974912 -76.800433 39.022141 2.615903 -2.034826 134.185079
333836.900000 38.974899 -76.800431 39.185532 2.664140 -2.116014 134.243072
333837.000000 38.974885 -76.800429 39.350861 2.774904 -2.144678 134.299654
333837.100000 38.974865 -76.800298 37.418945 2.850835 -2.114705 134.398550
333837.200000 38.974852 -76.800296 37.580505 2.884085 -2.056733 134.466562
333837.300000 38.974839 -76.800294 37.738190 2.855895 -2.008695 134.545777
333837.400000 38.974826 -76.800291 37.894104 2.806602 -1.963520 134.629414
333837.500000 38.974812 -76.800290 38.049835 2.783808 -1.954773 134.705841
333837.600000 38.974799 -76.800287 38.207108 2.795648 -1.990921 134.774626
333837.700000 38.974786 -76.800285 38.364456 2.817813 -1.939232 134.839533
333837.800000 38.974773 -76.800283 38.520523 2.850815 -1.910259 134.910581
333837.900000 38.974760 -76.800281 38.675232 2.921243 -1.883240 134.981552
333838.000000 38.974747 -76.800279 38.829620 2.978940 -1.817397 135.049758
333838.100000 38.974719 -76.800152 36.973358 3.004815 -1.844022 135.158401
333838.200000 38.974706 -76.800149 37.122192 3.041297 -1.801074 135.229291
333838.300000 38.974693 -76.800147 37.268677 3.041040 -1.753766 135.292497
333838.400000 38.974680 -76.800146 37.413559 3.030862 -1.729887 135.350786
333838.500000 38.974666 -76.800144 37.557510 3.014237 -1.683330 135.409349
333838.600000 38.974653 -76.800142 37.700974 2.995593 -1.700044 135.462260
333838.700000 38.974640 -76.800140 37.845963 3.004763 -1.735168 135.508703
333838.800000 38.974627 -76.800138 37.992752 3.007112 -1.716914 135.552097
333838.900000 38.974613 -76.800137 38.138260 2.993438 -1.681773 135.587047
333838.999583 38.974600 -76.800135 38.282913 2.978388 -1.658680 135.628879
333839.099583 38.974572 -76.800014 36.064331 2.919038 -1.608894 135.720993
333839.199583 38.974560 -76.800012 36.200974 2.806195 -1.559017 135.773394
333839.299583 38.974546 -76.800010 36.336121 2.706572 -1.540261 135.819949
333839.400000 38.974532 -76.800008 36.470261 2.613110 -1.499521 135.863294
333839.500000 38.974519 -76.800006 36.602951 2.513531 -1.408897 135.901488
333839.600000 38.974505 -76.800005 36.732559 2.388926 -1.340652 135.935359
333839.700000 38.974493 -76.800003 36.859665 2.270863 -1.289875 135.972067
333839.800000 38.974479 -76.800001 36.986176 2.126483 -1.293930 136.006667
333839.900000 38.974465 -76.799999 37.113190 1.993783 -1.319583 136.039230
333840.000000 38.974452 -76.799996 37.243011 2.011596 -1.329064 136.066242
333840.100000 38.974418 -76.799874 35.314972 2.023906 -1.319806 136.130666
333840.200000 38.974405 -76.799872 35.441818 2.100384 -1.348943 136.152377
333840.300000 38.974391 -76.799870 35.569473 2.123113 -1.333970 136.179417
333840.400000 38.974378 -76.799868 35.695618 2.087637 -1.269860 136.213448
333840.500000 38.974364 -76.799865 35.819595 2.034265 -1.207650 136.257023
333840.600000 38.974350 -76.799863 35.940567 2.017620 -1.154330 136.298000
333840.700000 38.974337 -76.799861 36.059372 2.033880 -1.129807 136.338158
333840.800000 38.974324 -76.799859 36.177979 2.050150 -1.109958 136.375212
333840.900000 38.974310 -76.799857 36.297150 2.058027 -1.120326 136.410829
333841.000000 38.974297 -76.799855 36.415176 2.034262 -1.059840 136.455271
333841.100000 38.974253 -76.799728 35.356506 1.998289 -0.992940 136.565736
333841.200000 38.974240 -76.799726 35.467087 2.023517 -0.961050 136.641338
333841.300000 38.974226 -76.799724 35.576996 2.003748 -0.940800 136.724121
333841.400000 38.974212 -76.799721 35.686081 1.985931 -0.928793 136.828493
333841.500000 38.974199 -76.799719 35.795135 1.943456 -0.872144 136.943332
333841.600000 38.974185 -76.799717 35.902725 1.887619 -0.828969 137.069741
333841.700000 38.974172 -76.799715 36.008469 1.925306 -0.771727 137.213659
333841.800000 38.974159 -76.799713 36.111420 1.975762 -0.778820 137.348582
333841.900000 38.974145 -76.799711 36.216324 1.997510 -0.836164 137.477900
333842.000000 38.974132 -76.799709 36.322266 1.967079 -0.835284 137.619659
333842.100000 38.974094 -76.799597 34.387634 1.906939 -0.845053 137.803965
333842.200000 38.974081 -76.799595 34.488953 1.897957 -0.848208 137.941815
333842.300000 38.974067 -76.799593 34.590912 1.949910 -0.857268 138.073401
333842.400000 38.974054 -76.799591 34.692703 1.998705 -0.756717 138.174824
333842.500000 38.974041 -76.799589 34.791016 2.107507 -0.687361 138.224230
333842.600000 38.974027 -76.799587 34.887299 2.204876 -0.641036 138.246937
333842.700000 38.974014 -76.799585 34.981964 2.285304 -0.646940 138.257857
333842.800000 38.974000 -76.799583 35.076263 2.301498 -0.634774 138.277192
333842.900000 38.973987 -76.799581 35.169403 2.261134 -0.596786 138.321603
333843.000000 38.973974 -76.799579 35.261597 2.203856 -0.592640 138.393430
333843.100000 38.973930 -76.799481 33.561142 2.150155 -0.549111 138.539805
333843.200000 38.973917 -76.799478 33.647476 2.177223 -0.501690 138.645644
333843.300000 38.973903 -76.799477 33.733368 2.197974 -0.506306 138.745946
333843.400000 38.973889 -76.799475 33.819626 2.239292 -0.495950 138.843836
333843.500000 38.973876 -76.799473 33.905762 2.284951 -0.455359 138.945149
333843.600000 38.973862 -76.799471 33.989334 2.301305 -0.402209 139.039160
333843.700000 38.973849 -76.799469 34.070541 2.280018 -0.371768 139.127143
333843.800000 38.973835 -76.799467 34.151825 2.240150 -0.375159 139.212036
333843.900000 38.973822 -76.799465 34.233109 2.202426 -0.339456 139.289225
333844.000000 38.973809 -76.799464 34.312805 2.125867 -0.330523 139.364918
333844.100000 38.973768 -76.799376 32.398346 2.058876 -0.302995 139.488361
333844.200000 38.973754 -76.799375 32.473923 2.034992 -0.284831 139.562906
333844.300000 38.973741 -76.799373 32.548859 2.038115 -0.277827 139.634899
333844.400000 38.973727 -76.799370 32.623779 2.038967 -0.191302 139.707920
333844.500000 38.973714 -76.799369 32.694382 2.044640 -0.148420 139.779110
333844.600000 38.973701 -76.799367 32.762909 2.052556 -0.146048 139.852239
333844.700000 38.973687 -76.799365 32.832260 2.030390 -0.161112 139.916869
333844.800000 38.973674 -76.799363 32.902100 1.972112 -0.145950 139.981197
333844.900000 38.973660 -76.799361 32.971878 1.950728 -0.114044 140.042539
333845.000000 38.973646 -76.799359 33.041397 1.926678 -0.151714 140.097829
333845.100000 38.973599 -76.799260 31.105423 1.908405 -0.200202 140.194524
333845.200000 38.973585 -76.799258 31.176453 1.891261 -0.219849 140.243123
333845.300000 38.973572 -76.799256 31.247787 1.856919 -0.220190 140.290734
333845.400000 38.973558 -76.799254 31.319351 1.761350 -0.247937 140.342707
333845.500000 38.973545 -76.799252 31.391891 1.736148 -0.245178 140.393251
333845.600000 38.973532 -76.799250 31.464508 1.740941 -0.245997 140.430714
333845.700000 38.973518 -76.799247 31.538574 1.897411 -0.276218 140.465901
333845.800000 38.973505 -76.799245 31.615784 2.048051 -0.317869 140.488086
333845.900000 38.973491 -76.799244 31.693619 2.141511 -0.230562 140.511981
333846.000000 38.973478 -76.799242 31.765198 2.228930 -0.084809 140.548964
333846.100000 38.973432 -76.799129 30.717606 2.243597 0.016954 140.639023
333846.200000 38.973419 -76.799127 30.780014 2.255987 0.144645 140.687402
333846.300000 38.973405 -76.799124 30.839355 2.214526 0.117915 140.741097
333846.400000 38.973392 -76.799122 30.898972 2.203621 0.096655 140.785963
333846.500000 38.973378 -76.799119 30.963165 2.189263 0.049937 140.825797
333846.600000 38.973365 -76.799118 31.029373 2.124345 0.084337 140.859676
333846.700000 38.973351 -76.799115 31.092010 2.097499 0.109790 140.899389
333846.800000 38.973338 -76.799113 31.152390 2.111336 0.155816 140.944147
333846.900000 38.973324 -76.799111 31.211884 2.100636 0.116458 140.984286
333847.000000 38.973311 -76.799109 31.275131 2.075094 -0.005616 141.026967
333847.100000 38.973253 -76.798965 31.094376 2.002899 -0.190582 141.118716
333847.200000 38.973239 -76.798963 31.174545 1.964564 -0.309350 141.162464
333847.300000 38.973226 -76.798960 31.258682 1.975173 -0.400635 141.198393
333847.400000 38.973212 -76.798958 31.346085 2.123123 -0.434596 141.230342
333847.500000 38.973199 -76.798956 31.436066 2.336230 -0.506719 141.257904
333847.600000 38.973186 -76.798954 31.527878 2.728304 -0.509335 141.289559
333847.700000 38.973172 -76.798951 31.620300 3.025467 -0.582493 141.320420
333847.800000 38.973158 -76.798949 31.714783 3.127194 -0.532615 141.358703
333847.900000 38.973145 -76.798947 31.804718 3.092454 -0.345920 141.426110
333848.000000 38.973131 -76.798944 31.883179 3.084333 -0.182772 141.504657
333848.100000 38.973085 -76.798833 30.581985 3.066181 0.001416 141.629169
333848.200000 38.973072 -76.798830 30.648392 2.974444 0.070657 141.688548
333848.300000 38.973058 -76.798828 30.716309 2.872921 -0.069049 141.762668
333848.400000 38.973044 -76.798826 30.792145 2.871989 -0.228906 141.826246
333848.500000 38.973030 -76.798824 30.875717 2.902070 -0.248547 141.874839
333848.600000 38.973017 -76.798822 30.958176 2.893625 -0.242904 141.915418
333848.700000 38.973003 -76.798819 31.037277 2.899934 -0.206914 141.964590
333848.800000 38.972990 -76.798817 31.115051 2.834484 -0.259439 142.024432
333848.900000 38.972976 -76.798815 31.194962 2.750607 -0.304899 142.097061
333849.000000 38.972962 -76.798813 31.274750 2.658499 -0.238453 142.168218
333849.100000 38.972908 -76.798703 30.581726 2.536804 -0.180935 142.298583
333849.200000 38.972895 -76.798701 30.659729 2.436990 -0.135820 142.376804
333849.300000 38.972881 -76.798699 30.736176 2.348241 -0.133243 142.451509
333849.400000 38.972866 -76.798697 30.812851 2.297657 -0.173922 142.528111
333849.500000 38.972853 -76.798695 30.892914 2.352388 -0.223520 142.599466
333849.600000 38.972839 -76.798693 30.973984 2.401306 -0.222420 142.664736
333849.700000 38.972826 -76.798691 31.055038 2.502132 -0.234956 142.728164
333849.800000 38.972811 -76.798689 31.136765 2.594504 -0.259508 142.801295
333849.900000 38.972798 -76.798687 31.219757 2.670125 -0.211598 142.870388
333850.000000 38.972784 -76.798685 31.301193 2.692727 -0.230980 142.943732
333850.100000 38.972735 -76.798584 30.195740 2.685013 -0.164561 143.075667
333850.200000 38.972721 -76.798582 30.277496 2.670242 -0.172050 143.158127
333850.300000 38.972708 -76.798581 30.359665 2.654209 -0.183275 143.244711
333850.400000 38.972693 -76.798579 30.442841 2.629882 -0.232355 143.328796
333850.500000 38.972679 -76.798577 30.528015 2.568804 -0.287165 143.410962
333850.600000 38.972665 -76.798575 30.615784 2.531909 -0.308475 143.495721
333850.700000 38.972652 -76.798574 30.704254 2.588855 -0.233900 143.586009
333850.800000 38.972638 -76.798572 30.788559 2.559278 -0.101919 143.665673
333850.900000 38.972624 -76.798570 30.865921 2.475270 0.001194 143.747867
333851.000000 38.972610 -76.798568 30.940125 2.390742 0.013465 143.840407
333851.100000 38.972562 -76.798489 29.730499 2.364900 0.027877 143.972235
333851.200000 38.972548 -76.798487 29.804626 2.382498 0.060025 144.044532
333851.300000 38.972534 -76.798486 29.879028 2.302788 0.097705 144.113010
